City,City 2,Lat,Long,Country,Homicide,Fastest Growing,Monocle,Economist,Mercer,Richest Cities,Siemens GCI,Global Cities Index,Pop. City Proper,Pop. Urban Area
Abidjan,Abidjan,5.316667,-4.033333,Côte d'Ivoire,,94,,,,,,,44,80
Abu Dhabi,Abu Dhabi,24.466667,54.366667,United Arab Emirates,,,,,,,,62,,
Abuja,Abuja,9.066667,7.483333, Nigeria,,,,,,,,,,183
Acapulco,Acapulco,16.863611,-99.8825,Mexico,3,,,,,,,,,
Accra,Accra,5.55,-0.2,Ghana,,52,,,,,2,,,95
Adana,Adana,37,35.321333,Turkey,,163,,,,,,,,317
Addis Ababa,Addis Ababa,8.9806034,38.7577605,Ethiopia,,31,,,,,3,80,82,129
Adelaide,Adelaide,-34.9286212,138.5999594,Australia,,,,5,29,,,,,404
Agra,Agra,27.1766701,78.0080745,India,,53,,,,,,,,249
Ahmadabad,Ahmadabad,23.022505,72.5713621,India,,73,,,,,,,39,47
Ahvaz,Ahvaz,31.3183272,48.6706187, Iran,,,,,,,,,,362
Aleppo,Aleppo,36.2116828,37.1472998,Syria,,98,,,,,,,,126
Alexandria,Alexandria,38.8048355,-77.0469214,Egypt,,180,,,,,3,,49,79
Algiers,Algiers,36.752887,3.042048,Algeria,,72,,134,,,,,,145
Allahabad,Allahabad,25.4358011,81.846311,India,,130,,,,,,,,352
Almaty,Almaty,43.2775,76.895833, Kazakhstan,,,,,,,,,,327
Amman,Amman,31.9565783,35.9456951,Jordan,,134,,103,,,,,,161
Amritsar,Amritsar,31.6339793,74.8722642,India,,60,,,,,,,,363
Amsterdam,Amsterdam,52.3702157,4.8951679,The Nethoerlands,,,19,,12,15,2,26,,435
Ankara,Ankara,39.92077,32.85411, Turkey,,143,,,,,,,57,87
Anshan,Anshan,41.108647,122.994329, China,,,,,,,,,,297
Antananarivo,Antananarivo,-18.933333,47.516667,Madagascar,,20,,,,,,,,218
Anyang,Anyang,37.3942527,126.9568209, China,,,,,,,,,,376
Aracaju,Aracaju,-10.9472468,-37.0730823,Brazil,46,,,,,,,,,
Asansol,Asansol,23.68,86.99,India,,42,,,,,,,,348
Asunción,Asunciï¿½n,-25.282197,-57.6351,Paraguay,,40,,,,,,,,200
Athens,Athens,37.983917,23.7293599,Greece,,,,,,39,4,,,111
Atlanta,Atlanta,33.7489954,-84.3879824,United States,,78,,,,,4,36,,75
Auckland,Auckland,-36.8484597,174.7633315,New Zealand,,231,12,10,3,25,,,,345
Aurangabad,Aurangabad,19.8761653,75.3433139, India,,,,,,,,,,361
Austin,Austin,30.267153,-97.7430608, United States,,76,,,,,,,,315
Baghdad,Baghdad,33.325,44.422,Iraq,,104,,,,,,,31,51
Baixada Santista,Baixada Santista,-23.960833,-46.333889,Brazil,,171,,,,,,,,
Baku[76],Baku,40.4349504,49.8676232, Azerbaijan,,,,,,,,,,215
Baltimore,Baltimore,39.2903848,-76.6121893,United States,36,282,,,,,,,,195
Bamako,Bamako,12.65,-8,Mali,,6,,,,,,,,203
Bandung,Bandung,-6.9148644,107.6082421,Indonesia,,55,,,,,,,,74
Bangalore,Bangalore,12.9715987,77.5945627,India,,67,,,,,,69,,
Bangkok,Bangkok,13.7278956,100.5241235,Thailand,,244,,,,62,3,42,25,19
Baoding,Baoding,38.873891,115.464806, China,,,,,,,,,,344
Baotou,Baotou,40.657449,109.840347,China,,285,,,,,,,,220
Barcelona,Barcelona,41.3850639,2.1734035,Spain,,,21,,40,29,,24,,77
Bareilly,Bareilly,28.3670355,79.4304381, India,,,,,,,,,,446
Barquisimeto,Barquisimeto,10.063611,-69.334722, Venezuela,10,,,,,,,,,353
Barranquilla,Barranquilla,10.9642103,-74.7970435,Colombia,,127,,,,,,,,229
Basra,Basra,30.5,47.816667,Iraq,,141,,,,,,,,
Beihai,Beihai,21.481254,109.119927,China,,1,,,,,,,,
Beijing,Beijing,39.90403,116.407526,China,,,,,,63,3,8,3,11
Beirut,Beirut,33.8886289,35.4954794,Lebanon,,147,,,,,,,,222
Belém,Belem,-1.4557549,-48.4901799,Brazil,23,66,,,,,,,,214
Belgrade,Belgrade,44.816667,20.466667,Serbia,,,,,,,5,,,412
Belo Horizonte,Belo Horizonte,-19.9245192,-43.9352685,Brazil,44,138,,,,,2,,,61
Bengaluru,Bengaluru,12.9715987,77.5945627,India,,,,,,,4,,22,35
Benin City,Benin City,6.3176,5.6145, Nigeria,,,,,,,,,,323
Berlin,Berlin,52.5200066,13.404954,Germany,,,14,,16,11,2,19,72,94
Bern,Bern,46.9479222,7.4446085, Switzerland,,,,,10,,,,,
Bhopal,Bhopal,23.2599333,77.412615,India,,77,,,,,,,,226
Birmingham[70],Birmingham,33.5206608,-86.80249, United Kingdom,,,,,,,,,,190
Bogota,Bogota,4.598056,-74.075833,Colombia,,157,,111,,53,2,52,28,36
Boston,Boston,42.3584308,-71.0597732,United States,,251,,,35,,2,21,,83
Brasília,Brasï¿½lia,-14.235004,-51.92528,Brazil,,48,,,,,2,,,179
Bratislava,Bratislava,48.1458923,17.1071373,Slovakia,,,,63,,42,4,,,
Brazzaville,Brazzaville,-4.267778,15.291944,Congo,,35,,,,,,,,272
Bremen,Bremen,53.0792962,8.8016937,Germany,,,,,,,2,,,
Brisbane,Brisbane,-27.4710107,153.0234489,Australia,,213,25,,37,,,,,234
Brussels,Brussels,50.8503396,4.3517103,Belgium,,,,,22,30,2,11,,228
Bucaramanga,Bucaramanga,7.11331,-73.120468,Colombia,,124,,,,,,,,399
Bucharest,Bucharest,44.4325,26.103889,Romania,,,,,,59,5,,,230
Budapest,Budapest,47.497912,19.040235,Hungary,,,,,,61,4,46,,264
Buenos Aires,Buenos Aires,-34.6037232,-58.3815931,Argentina,,260,,,,48,4,20,,21
Bursa,Bursa,40.182846,29.067084,Turkey,,61,,,,,,,,262
Busan,Busan,35.1795543,129.0756416, South Korea,,,,,,,,,68,121
Cairo,Cairo,30.0444196,31.2357116,Egypt,,189,,122,,65,3,49,18,
Calcutta,Calcutta,22.572646,88.363895,India,,167,,,,,,,,
Calgary,Calgary,51.0453246,-114.0581012,Canada,,109,,6,32,,3,,,405
Cali,Cali,3.420556,-76.522222,Colombia,4,112,,,,,,,,174
Campina Grande,Campina Grande,-7.2223667,-35.8734667,Brazil,25,,,,,,,,,
Campinas,Campinas,-22.9099384,-47.0626332,Brazil,,103,,,,,,,,168
Canberra,Canberra,-35.2819998,149.1286843,Australia,,,,,26,,,,,
Cape Town,Cape Town,-33.9248685,18.4240553,South Africa,20,208,,,,,2,71,65,108
Caracas,Caracas,10.5,-66.916667,Venezuela,2,271,,,,67,,67,,124
Cartagena,Cartagena,10.41373,-75.5335769, Colombia,,,,,,,,,,452
Casablanca,Casablanca,33.533333,-7.583333,Morocco,,133,,,,,2,78,,136
Cebu City (Metro Cebu),Cebu Cityï¿½(Metro Cebu),10.3156992,123.8854366, Philippines,,,,,,,,,,176
Chandigarh,Chandigarh,30.7333148,76.7794179, India,,,,,,,,,,424
Changchun,Changchun,43.817072,125.323544,China,,206,,,,,,,,130
Changde,Changde,29.031673,111.698497,China,,187,,,,,,,,
Changsha,Changsha,28.228209,112.938814,China,,65,,,,,,,83,128
Changshu,Changshu,31.653584,120.752507, China,,,,,,,,,,398
Changwon,Changwon,37.8228,128.1555, South Korea,,,,,,,,,,456
Changzhou[13],Changzhou[13],36.7784723,119.955694, China,,,,,,,,,,147
Chaoyang–Chaonan,Chaoyang,41.572519,120.439746, China,,,,,,,,,,201
Charlotte,Charlotte,35.2270869,-80.8431267,United States,,,,,,,3,,,346
Chelyabinsk,Chelyabinsk,55.154722,61.375833, Russia,,,,,,,,,,402
Chengdu,Chengdu,30.572269,104.066541,China,,236,,,,,,,45,39
Chennai (Madras),Chennai (Madras),13.0524139,80.2508246,India,,175,,,,,,72,47,33
Chicago,Chicago,41.8781136,-87.6297982,United States,,290,,,42,9,3,7,,34
Chifeng,Chifeng,42.257817,118.886856,China,,250,,,,,,,,420
Chihuahua,Chihuahua,28.6329957,-106.0691004,Mexico,21,,,,,,,,,
Chittagong,Chittagong,22.366667,91.8,Bangladesh,,10,,,,,,,,138
Chongqing,Chongqing,29.56301,106.551557,China,,207,,,,,,84,50,48
Cincinnati,Cincinnati,39.1031182,-84.5120196, United States,,274,,,,,,,,286
Ciudad Guayana,Ciudad Guayana,8.3731,-62.6436, Venezuela,17,,,,,,,,,
Ciudad Juárez,Ciudad Juï¿½rez,31.6903638,-106.4245478,Mexico,37,89,,,,,,,,335
Ciudad Victoria,Ciudad Victoria,23.7369164,-99.1411154, Mexico,22,,,,,,,,,
Cixi City,Cixi City,30.17272,121.26426, China,,,,,,,,,,371
Cleveland,Cleveland,41.49932,-81.6943605,United States,,,,,,,5,,,255
Coimbatore,Coimbatore,11.0168445,76.9558321,India,,93,,,,,,,,197
Cologne,Cologne,50.937531,6.9602786,Germany,,,,,,,3,,,219
Colombo,Colombo,6.9270786,79.861243,Sri Lanka,,,,128,,,,,,205
"Columbus, Ohio",Columbus,39.9611755,-82.9987942, United States,,228,,,,,,,,329
Conakry,Conakry,9.509167,-13.712222,Guinea,,23,,,,,,,,247
Copenhagen,Copenhagen,55.6760968,12.5683371,Denmark,,,1,,9,12,2,43,,366
Córdoba,Cordoba,37.8881751,-4.7793835,Argentina,,182,,,,,,,,300
Cúcuta,Cï¿½cuta,20.5454122,-100.8424071,Colombia,33,,,,,,,,,
Cuernavaca,Cuernavaca,18.9459799,-99.2231387,Mexico,43,,,,,,,,,
Cuiabá,Cuiabï¿½,-15.6205529,-56.0695114,Brazil,29,,,,,,,,,
Culiacán,Culiacï¿½n,24.8052488,-107.3834316,Mexico,16,,,,,,,,,
Curitiba,Curitiba,-25.4200388,-49.2650973,Brazil,,120,,,,,1,,,127
Daegu,Daegu,35.8714354,128.601445, South Korea,,,,,,,,,,178
Daejeon,Daejeon,36.3504119,127.3845475, South Korea,,,,,,,,,,310
Dakar,Dakar,14.7645042,-17.3660286,Senegal,,44,,,,,,,,125
Dalian,Dalian,38.914003,121.614682,China,,294,,,,,,,,99
Dallas,Dallas,32.7801399,-96.8004511,United States,,192,,,,,3,50,,55
Damascus,Damascus,33.513,36.292,Syria,,137,,140,,,,,,156
Daqing,Daqing,46.58931,125.103784,China,,281,,,,,,,,
Dar es Salaam,Dar es Salaam,-6.8,39.283333,Tanzania,,9,,,,,5,,56,104
Datong,Datong,40.076763,113.300129, China,,,,,,,,,,288
Davao,Davao City,7.190708,125.455341,Philippines,,87,,,,,,,,
Davao City,Davao,7.190708,125.455341, Philippines,,,,,,,,,,313
Delhi,Delhi,28.635308,77.22496,India,,28,,,,68,3,,11,4
Denver-Aurora,Denver-Aurora,39.7294319,-104.8319195,United States,,181,,,,,2,,,173
Detroit,Detroit,42.331427,-83.0457538,United States,24,,,,,,5,,,101
Dhaka,Dhaka,23.810332,90.4125181,Bangladesh,,19,,139,,,,75,9,20
Dhanbad,Dhanbad,23.7956531,86.4303859,India,,96,,,,,,,,358
Distrito Central,Distrito Central,-21.1672276,26.419389,Honduras,6,,,,,,,,,
Dnipropetrovsk,Dnipropetrovsk,48.464717,35.046183, Ukraine,,,,,,,,,,457
Doha,Doha,25.286667,51.533333,Qatar,,,,,,44,,64,,
Dongguan,Dongguan,23.020536,113.751765, China,,,,,,,,,26,38
Dongying,Dongying,37.434751,118.674767, China,,,,,,,,,,430
Douala,Douala,4.05,9.7,Cameroon,,75,,132,,,,,,162
Dubai,Dubai,25.2,55.3,UAE,,,,77,,27,,27,,122
Dublin,Dublin,53.3498053,-6.2603097,Ireland,,270,,,35,8,4,45,,395
Durban,Durban,-29.8586804,31.0218404,South Africa,48,238,,,,,2,,74,114
Durg-Bhilai,Durg-Bhilai,21.2088774,81.3780632, India,,,,,,,,,,385
Düsseldorf,Dï¿½sseldorf,51.2277411,6.7734556,Germany,,,,,6,,,,,
East Rand (Ekurhuleni),East Rand (Ekurhuleni),-26.1777025,28.3461948,South Africa,,57,,,,,,,,
Ekurhuleni,Ekurhuleni,-26.1777025,28.3461948, South Africa,,,,,,,,,79,
Erbil,Erbil,36.191111,44.009167, Iraq,,,,,,,,,,423
Esfahan,Esfahan,32.6546275,51.6679826,Iran,,128,,,,,,,,
Essen,Essen,51.4556432,7.0115552,Germany,,,,,,,3,,,45
Faisalabad,Faisalabad,31.4187142,73.0791073,Pakistan,,33,,,,,,,,132
Faridabad,Faridabad,28.4089123,77.3177894,India,,8,,,,,,,,
Fes,Fes,34.033333,-5, Morocco,,,,,,,,,,406
Florianópolis,Florianï¿½polis,-27.5949884,-48.5481743, Brazil,,,,,,,,,,429
Fortaleza,Fortaleza,-3.7318616,-38.5266704,Brazil,7,146,,,,,,,,105
Foshan,Foshan,23.021479,113.121436, China,,,,,,,,,36,
Frankfurt,Frankfurt,50.1109221,8.6821267,Germany,,,,,7,14,2,23,,188
Fukuoka,Fukuoka,33.5903547,130.4017155,Japan,,,10,,,,,,,167
Fushun,Fushun,41.880872,123.957208, China,,,,,,,,,,328
Fuyu,Fuyu,44.988449,126.049703,China,,269,,,,,,,,
Fuzhou,Fuzhou,26.074508,119.296494, China,,,,,,,,,,107
Gaziantep,Gaziantep,37.06622,37.38332, Turkey,,,,,,,,,,369
Geneva,Geneva,46.1983922,6.1422961,Switzerland,,,,,8,4,,39,,
Ghaziabad,Ghaziabad,28.6691565,77.4537578,India,,2,,,,,,,,
Giza,Giza,30.0130557,31.2088526, Egypt,,,,,,,,,61,
Glasgow,Glasgow,55.864237,-4.251806, United Kingdom,,,,,,,,,,370
Goiânia,Goiania,-16.6868912,-49.2647943,Brazil,28,101,,,,,,,,210
Grande Vitória,Grande Vitï¿½ria,-20.2905188,-40.3452254,Brazil,,126,,,,,,,,
Greater Cairo,Greater Cairo,53.5477593,-2.0745618, Egypt,,,,,,,,,,16
Guadalajara,Guadalajara,20.6596988,-103.3496092,Mexico,,255,,,,,5,,,81
Guangzhou,Guangzhou,23.129163,113.264435,China,,,,,,,3,66,6,12
Guatemala City,Guatemala City,14.613333,-90.535278,Guatemala,8,,,,,,,,,364
Guayaquil,Guayaquil,-2.1709979,-79.9223592,Ecuador,,105,,,,,,,,180
Guiyang,Guiyang,26.647661,106.630154,China,,205,,,,,,,,155
Gujranwala,Gujranwala,32.1543783,74.1842254,Pakistan,,27,,,,,,,,240
Guwahati,Guwahati,26.1445169,91.7362365, India,,,,,,,,,,449
Gwalior,Gwalior,26.2182871,78.1828308, India,,,,,,,,,,389
Gwangju,Gwangju,35.1595454,126.8526012, South Korea,,,,,,,,,,316
Hai Phong,Hai Phong,20.8449115,106.6880841,Vietnam,,131,,,,,,,,
Haifa,Haifa,32.7940463,34.989571, Israel,,,,,,,,,,425
Haikou,Haikou,20.044002,110.198293, China,,,,,,,,,,291
Hamamatsu,Hamamatsu,34.7108344,137.7261258, Japan,,,,,,,,,,453
Hamburg,Hamburg,53.5510846,9.9936818,Germany,,,20,,17,,2,,,252
Handan,Handan,36.625657,114.538962,China,,221,,,,,,,,263
Hangzhou,Hangzhou,30.274085,120.15507,China,,153,,,,,,,69,50
Hanoi,Hanoi,21.033333,105.85,Vietnam,,113,,,,,4,,33,169
Hanover,Hanover,52.3758916,9.7320104,Germany,,,,,,,2,,,
Harare,Harare,-17.863889,31.029722,Zimbabwe,,169,,136,,,,,,287
Harbin,Harbin,45.803775,126.534967, China,,,,,,,,,59,82
Havana,Havana,23.0540698,-82.345189, Cuba,,,,,,,,,,110
Hefei,Hefei,31.820587,117.227239,China,,220,,,,,,,76,
Helsinki,Helsinki,60.1733244,24.9410248,Finland,,287,5,8,32,20,2,,,388
Heze,Heze,35.23375,115.480656,China,,68,,,,,,,,
Hiroshima,Hiroshima,34.3852029,132.4552927, Japan,,,,,,,,,,342
Ho Chi Minh City,Ho Chi Minh City,10.8230989,106.6296638,Vietnam,,132,,,,,,70,29,37
Hohhot,Hohhot,40.842585,111.749181, China,,,,,,,,,,225
Hong Kong,Hong Kong,22.396428,114.109497,China,,262,13,,,35,2,5,30,46
Honolulu,Honolulu,21.3069444,-157.8583333,United States,,,,,28,,,,,
Houston,Houston,29.7601927,-95.3693896,United States,,184,,,,,3,38,,63
Huaian,Huaian,33.61036,119.015288,China,,243,,,,,,,,243
Huaibei,Huaibei,33.955845,116.798265, China,,,,,,,,,,442
Huainan,Huainan,32.625478,116.999933,China,,247,,,,,,,,407
Huambo,Huambo,-12.766667,15.733333, Angola,,,,,,,,,,383
Huizhou,Huizhou,23.111847,114.416196, China,,,,,,,,,,333
Hyderabad,Hyderabad,25.397257,68.359463,Pakistan,,54,,,,,,,,150
Hyderabad,Hyderabad,17.385044,78.486671,India,,115,,,,,,,34,41
Ibadan,Ibadan,7.396389,3.916667,Nigeria,,117,,,,,,,,133
Inch'on,Inch'on,37.4594575,126.6256454,South Korea,,280,,,,,,,,
Indianapolis,Indianapolis,39.768403,-86.158068, United States,,165,,,,,,,,308
Indore,Indore,22.7195687,75.8577258,India,,32,,,,,,,,193
Isfahan,Isfahan,32.6546275,51.6679826, Iran,,,,,,,,,,189
Istanbul,Istanbul,41.00527,28.97696,Turkey,,166,,,,56,4,28,5,23
Izmir,Izmir,38.41885,27.12872,Turkey,,145,,,,,,,,148
Jabalpur,Jabalpur,23.166667,79.933333,India,,121,,,,,,,,341
Jacksonville,Jacksonville,30.3321838,-81.655651, United States,,,,,,,,,,413
Jaipur,Jaipur,26.9124336,75.7872709,India,,24,,,,,,,84,131
Jakarta,Jakarta,-6.2087634,106.845599,Indonesia,,47,,,,72,3,51,14,2
Jamshedpur,Jamshedpur,22.8045665,86.2028754,India,,84,,,,,,,,331
Jeddah,Jeddah,21.543333,39.172778, Saudi Arabia,,,,,,,,,73,119
Jiamusi,Jiamusi,46.799923,130.318917, China,,,,,,,,,,421
Jiaxing,Jiaxing,30.753924,120.758543, China,,,,,,,,,,438
Jidda,Jidda,21.543333,39.172778,Saudi Arabia,,51,,,,,,,,
Jilin,Jilin,43.837883,126.549572,China,,266,,,,,,,,282
Jinan,Jinan,36.651216,117.12,China,,291,,,,,,,,112
Jingmen,Jingmen,31.035423,112.199265,China,,214,,,,,,,,
"Jining, Shandong",Jining,35.414921,116.587099,China,,183,,,,,,,,
Jinxi,Jinxi,27.918959,116.755058,China,,204,,,,,,,,
João Pessoa,Joao Pessoa,-7.1194958,-34.8450118, Brazil,9,,,,,,,,,375
Jodhpur,Jodhpur,26.2389469,73.0243094, India,,,,,,,,,,377
Johannesburg,Johannesburg,-26.2041028,28.0473051,South Africa,,116,,,,32,2,59,54,43
Johor Bahru,Johor Bahru,1.46343,103.7547149, Malaysia,,,,,,,,,,283
Joinville,Joinville,-26.3044084,-48.8463832, Brazil,,,,,,,,,,416
Kabul,Kabul,34.533333,69.166667,Afghanistan,,5,,,,,,,75,113
Kaduna,Kaduna,10.516667,7.433333,Nigeria,,102,,,,,,,,289
Kalyan[14],Kalyan[14],19.0967406,74.7003171, India,,,,,,,,,,154
Kampala,Kampala,0.313611,32.581111,Uganda,,13,,,,,,,,250
Kannur,Kannur,11.8744775,75.3703662, India,,,,,,,,,,281
Kano,Kano,12,8.516667,Nigeria,,106,,,,,,,,106
Kanpur,Kanpur,26.449923,80.3318736,India,,88,,,,,,,,142
Kansas City,Kansas City,39.0997265,-94.5785667, United States,,286,,,,,,,,304
Kaohsiung,Kaohsiung,23.0108714,120.6660044,China,,296,,,,,,,,153
Karachi,Karachi,24.8614622,67.0099388,Pakistan,,39,,134,,,5,76,2,7
Karaj,Karaj,35.835556,51.010278,Iran,,83,,,,,,,,
Kathmandu,Kathmandu,27.7,85.333333,   Nepal,,,,,,,,,,410
Katowice–Gliwice–Tychy,Katowice–Gliwice–Tychy,50.1218007,19.0200022, Poland,,,,,,,,,,172
Kazan,Kazan,55.790278,49.134722, Russia,,,,,,,,,,397
Kharkiv,Kharkiv,49.9935,36.230383, Ukraine,,,,,,,,,,322
Khartoum,Khartoum,15.566667,32.516667,Sudan,,100,,,,,,,,70
Khulna,Khulna,22.816667,89.55,Bangladesh,,37,,,,,,,,380
Kiev,Kiev,50.4501,30.5234,Ukraine,,,,,,69,5,,,152
Kigali,Kigali,-1.943889,30.059444, Rwanda,,,,,,,,,,433
Kingston,Kingston,44.2311717,-76.4859544, Jamaica,19,,,,,,,,,
Kinshasa,Kinshasa,-4.331667,15.313889,Congo,,17,,,,,,83,15,31
Kitaky_sh_,Kitakyushu,33.8834093,130.8752161, Japan,,,,,,,,,,223
Kobe,Kobe,34.690083,135.1955112,Japan,,,,,48,,,,,
Kochi (Cochin),Kochi (Cochin),33.5588035,133.5311675,India,,164,,,,,,,,199
Kolkata,Kolkata,22.572646,88.363895,India,,,,,,,4,79,51,18
Kollam,Kollam,8.8932118,76.6141396, India,,,,,,,,,,408
Konya,Konya,37.866667,32.483333, Turkey,,,,,,,,,,426
Kota,Kota,25.2138156,75.8647527, India,,,,,,,,,,437
Kozhikode (Calicut),Kozhikodeï¿½(Calicut),11.2587531,75.78041, India,,,,,,,,,,212
Kuala Lumpur,Kuala Lumpur,3.139003,101.686855,Malaysia,,194,,,,51,3,53,,49
Kumasi,Kumasi,6.666667,-1.616667, Ghana,,,,,,,,,,143
Kunming,Kunming,24.880095,102.832892,China,,299,,,,,,,,118
Kunshan,Kunshan,31.384913,120.98115, China,,,,,,,,,,294
Kuwait City,Kuwait City,29.369722,47.978333,Kuwait,,246,,81,,,,,,96
Kwangju,Kwangju,35.1595454,126.8526012,South Korea,,264,,,,,,,,
Kyoto,Kyoto,35.0116363,135.7680294,Japan,,,9,,,,,,,
La Paz,La Paz,-16.5,-68.15,Bolivia,,160,,,,,,,,254
Lagos,Lagos,6.5243793,3.3792057,Nigeria,,7,,137,,,3,74,4,25
Lahore,Lahore,31.5546061,74.3571581,Pakistan,,41,,,,,,82,10,42
Lanzhou,Lanzhou,36.061089,103.834304,China,,289,,,,,,,,171
Las Vegas,Las Vegas,36.1699412,-115.1398296, United States,,30,,,,,,,,227
Leeds-Bradford,Leeds-Bradford,53.8000071,-1.7136916, United Kingdom,,,,,,,,,,306
Leipzig,Leipzig,51.3396955,12.3730747,Germany,,,,,,,2,,,
León,Leshan,29.552106,103.765568,Mexico,,170,,,,,,,,276
Leshan,Leï¿½n,18.2117389,-66.042688,China,,293,,,,,,,,
Lille,Lille,50.62925,3.057256, France,,,,,,,,,,434
Lima,Lima,-12.046374,-77.0427934,Peru,,193,,,,49,5,61,21,30
Linyi,Linyi,35.104672,118.356448,China,,239,,,,,,,,211
Lisbon,Lisbon,38.7222524,-9.1393366,Portugal,,,22,,44,36,4,,,158
Liuan,Liuan,31.7337,116.521855,China,,135,,,,,,,,
Liupanshui,Liupanshui,26.592666,104.830359,China,,256,,,,,,,,
Liuzhou,Liuzhou,24.325502,109.415953, China,,,,,,,,,,320
Ljubljana,Ljubljana,46.0569465,14.5057515,Slovenia,,,,,,43,4,,,
Lomé,Lome,6.137778,1.2125, Togo,,,,,,,,,,239
London,London,51.5073509,-0.1277583, United Kingdom,,,,,38,19,3,2,23,29
Los Angeles,Los Angeles,34.0522342,-118.2436849,United States,,,,,,6,2,6,64,17
Luanda,Luanda,-8.838333,13.234444,Angola,,15,,,,,4,,42,64
Lubumbashi,Lubumbashi,-11.664722,27.479444,Congo,,12,,,,,,,,269
Lucknow,Lucknow,26.8465108,80.9466832,India,,74,,,,,,,,144
Ludhiana,Ludhiana,30.900965,75.8572758,India,,80,,,,,,,,273
Luoyang,Luoyang,34.619683,112.45404,China,,152,,,,,,,,257
Lusaka,Lusaka,-15.416667,28.283333,Zambia,,125,,,,,,,,245
Luxembourg,Luxembourg,49.815273,6.129583,Luxembourg,,,,,19,3,,,,
Lyon,Lyon,45.764043,4.835659,France,,,,,39,26,,,,303
Macapá,Macapa,0.0355735,-51.070535, Brazil,40,,,,,,,,,
Maceió,Maceio,-9.6498487,-35.7089492, Brazil,5,71,,,,,,,,365
Madrid,Madrid,40.4167754,-3.7037902,Spain,,,17,,49,23,3,15,78,53
Madurai,Madurai,9.9252007,78.1197754,India,,234,,,,,,,,309
Makassar,Makassar,-5.1308551,119.4165284, Indonesia,,,,,,,,,,292
Malappuram,Malappuram,11.0471526,76.0491001, India,,,,,,,,,,268
Managua,Managua,12.136389,-86.251389,Nicaragua,,81,,,,,,,,
Manama,Manama,26.216667,50.583333,Bahrain,,,,,,34,,77,,
Manaus,Manaus,-3.1190275,-60.0217314,Brazil,31,62,,,,,,,,232
Manchester[72],Manchester[72],-33.4726823,-70.7375591, United Kingdom,,,,,,,,,,198
Mandalay,Mandalay,21.975,96.083333, Burma,,,,,,,,,,409
Manila,Manila,14.5995124,120.9842195,Philippines,,,,,,71,4,63,,6
Mannheim,Mannheim,49.4874592,8.4660395,Germany,,,,,,,2,,,
Maputo,Maputo,-25.966667,32.583333,Mozambique,,25,,,,,5,,,159
Maracaibo,Maracaibo,10.65,-71.633333, Venezuela,42,119,,,,,,,,184
Maracay,Maracay,10.246944,-67.596111,Venezuela,,149,,,,,,,,400
Marseille,Marseille,43.296482,5.36978, France,,,,,,,,,,296
Mashhad,Mashhad,36.2722737,59.6312302,Iran,,179,,,,,,,,137
Mbuji-Mayi,Mbuji-Mayi,-6.15,23.6, Democratic Republic of the Congo,,,,,,,,,,325
Mecca,Mecca,21.416667,39.816667,Saudi Arabia,,85,,,,,,,,299
Medan,Medan,3.5915405,98.6692998,Indonesia,,107,,,,,,,,196
Medellín,Medellin,6.235925,-75.575137,Colombia,35,142,,,,,3,,,102
Medina,Medina,24.466667,39.6, Saudi Arabia,,,,,,,,,,384
Meerut,Meerut,28.9844618,77.7064137,India,,63,,,,,,,,314
Melbourne,Melbourne,-37.814107,144.96328,Australia,,259,3,1,17,,,25,60,100
Memphis,Memphis,35.1495343,-90.0489801, United States,,237,,,,,,,,422
Mendoza,Mendoza,-32.890183,-68.8440498,Argentina,,151,,,,,,,,
Mérida,Merida,20.9660441,-89.627433, Mexico,,,,,,,,,,432
Metro Manila,Metro Manila,14.6090537,121.0222565,Philippines,,190,,,,,,,,
Mexico City,Mexico City,19.4326077,-99.133208,Mexico,,279,,,,64,3,35,20,10
Miami,Miami,25.7890972,-80.2040435,United States,,218,,,,7,4,29,,58
Mianyang,Mianyang,31.46745,104.679114,China,,144,,,,,,,,
Milan,Milan,45.4654219,9.1859243,Italy,,,,,41,31,,44,,68
Milwaukee,Milwaukee,43.0389025,-87.9064736, United States,,,,,,,,,,332
"Minneapolis, St. Paul",Minneapolis,44.9716692,-93.2806134,United States,,261,,,,,3,,,157
Minsk,Minsk,53.9,27.566667, Belarus,,,,,,,,,,241
Mogadishu,Mogadishu,2.033333,45.35,Somalia,,26,,,,,,,,284
Mombasa,Mombasa,-4.0434771,39.6682065, Kenya,,,,,,,,,,431
Monrovia,Monrovia,6.313333,-10.801389, Liberia,,,,,,,,,,454
Monterrey,Monterrey,25.6866142,-100.3161126,Mexico,,223,,,,,3,,,88
Montevideo,Montevideo,-34.883611,-56.181944,Uruguay,,,,,,,4,,,277
Montreal,Montreal,45.5086699,-73.5539925,Canada,,,,,23,28,3,30,,115
Moscow,Moscow,55.755826,37.6173,Russia,,,,,,41,,17,8,15
Mosul,Mosul,36.34,43.13,Iraq,,59,,,,,,,,298
Multan,Multan,30.1983807,71.4687028,Pakistan,,45,,,,,,,,238
Mumbai,Mumbai,19.0759837,72.8776559,India,,108,,,,66,4,41,7,13
Munich,Munich,48.1351253,11.5819806, Germany,,,8,,4,16,2,37,,336
Muscat,Muscat,23.61,58.54,Oman,,,,88,,,,,,
Mysore,Mysore,12.2958104,76.6393805, India,,,,,,,,,,445
Nagoya (Ch_ky_)[22],N'Djamena,12.113056,15.049167, Japan,,,,,,,,,,28
Nagpur,Nagpur,21.1458004,79.0881546,India,,114,,,,,,,,164
Nairobi,Nairobi,-1.2920659,36.8219462,Kenya,,18,,124,,70,4,68,80,84
Nampho,Nampho,38.7522606,125.3246769,North Korea,,154,,,,,,,,
Nanchang,Nanchang,28.682892,115.858198,China,,203,,,,,,,,175
Nanchong,Nanchong,30.837793,106.110698,China,,198,,,,,,,,
Nanjing,Nanjing,32.060255,118.796877,China,,,,,,,3,,55,59
Nanning,Nanning,22.817002,108.366543,China,,219,,,,,,,,191
Nantong,Nantong,31.980172,120.894291, China,,,,,,,,,,443
Naples,Naples,26.1420358,-81.7948103, Italy,,,,,,,,,,103
Nashik,Nashik,19.9974533,73.7898023,India,,16,,,,,,,,285
Nashville,Nashville,36.166667,-86.783333, United States,,,,,,,,,,450
Natal,Natal,-5.7792569,-35.200916,Brazil,12,,,,,,,,,337
Naypyidaw,Naypyidaw,19.75,96.1, Burma,,,,,,,,,,411
N'Djamena,N'Djamena,12.113056,15.049167, Chad,,,,,,,,,,440
Neijiang,Neijiang,29.580229,105.058433,China,,278,,,,,,,,
Nelson Mandela Bay,Nelson Mandela Bay,-33.7452412,25.5681084,South Africa,41,,,,,,,,,
New Delhi,New Delhi,28.635308,77.22496,India,,,,,,,,57,,
New Orleans,New Orleans,29.9510658,-90.0715323,United States,26,,,,,,,,,
New Taipei City,New Taipei City,24.9157122,121.6739371, Republic of China (Taiwan),,,,,,,,,63,
New York City,New York City,40.7127837,-74.0059413,United States,,,,,44,10,2,1,24,8
"Newcastle, Gateshead",Newcastle,-32.9818512,151.6913753,UK,,268,,,,,,,,
Niamey,Niamey,13.521389,2.105278, Niger,,,,,,,,,,374
Nicosia,Nicosia,35.166667,33.366667,Cyprus,,,,,,5,,,,
Ningbo[6],Ningbo[6],29.8672806,121.4412182, China,,,,,,,,,,123
Nizhny Novgorod,Nizhny Novgorod,56.2965039,43.9360589, Russia,,,,,,,,,,359
Novosibirsk,Novosibirsk,55.0083526,82.9357327, Russia,,,,,,,,,,318
Nuevo Laredo,Nuevo Laredo,27.4779362,-99.549573,Mexico,30,,,,,,,,,
Nuremberg,Nuremberg,49.45203,11.07675,Germany,,,,,24,,2,,,447
Odessa,Odessa,46.482526,30.7233095, Ukraine,,,,,,,,,,451
Omsk,Omsk,54.983333,73.366667, Russia,,,,,,,,,,392
Orlando,Orlando,28.5383355,-81.3792365,United States,,177,,,,,3,,,231
Osaka,Osaka,34.6937378,135.5021651,Japan,,,,,,,2,55,,14
Oslo,Oslo,59.9138688,10.7522454,Norway,,,24,,32,22,2,,,
Ottawa,Ottawa,45.4215296,-75.6971931,Canada,,248,,,14,,3,,,
Ouagadougou,Ouagadougou,12.35,-1.516667, Burkina Faso,,,,,,,,,,202
Palembang,Palembang,-2.990934,104.7565565,Indonesia,,50,,,,,,,,307
Palmira,Palmira,3.583333,-76.25, Colombia,11,,,,,,,,,
Panama City,Panama City,8.983333,-79.516667,Panama,,,,97,,,,,,204
Paris,Paris,48.856614,2.3522219,France,,,18,,29,17,3,3,,27
Patna,Patna,25.611,85.144,India,,21,,,,,,,,209
Penang,Penang,5.2632341,100.4846227, Malaysia,,,,,,,,,,391
Pereira,Pereira,4.814278,-75.694558, Colombia,34,,,,,,,,,
Perth,Perth,-31.9530044,115.8574693,Australia,,227,,9,21,,,,,278
Peshawar,Peshawar,34.0149748,71.5804899,Pakistan,,36,,,,,,,,290
Philadelphia,Philadelphia,39.952335,-75.163789,United States,,,,,,,3,,,62
Phnom Penh,Phnom Penh,11.5448729,104.8921668,Cambodia,,136,,126,,,,,,271
"Phoenix, Mesa",Phoenix,33.5888589,-112.0066504,United States,,129,,,,,4,,,91
"Pingxiang, Jiangxi",Pingxiang,27.622768,113.854556,China,,277,,,,,,,,
Pittsburgh,Pittsburgh,40.4406248,-79.9958864,United States,,,,,49,,4,,,260
Port Elizabeth,Port Elizabeth,-33.958056,25.6, South Africa,,,,,,,,,,455
Port Harcourt[20],Port Harcourt[20],9.0395654,7.5018408, Nigeria,,,,,,,,,,224
Port Moresby,Port Moresby,-9.4438004,147.1802671,PNG,,,,138,,,,,,
Port-au-Prince,Port-au-Prince,18.533333,-72.333333, Haiti,49,49,,,,,,,,185
Portland,Portland,45.5234515,-122.6762071, United States,,161,23,,,,,,,233
Porto,Porto Alegre,-30.0346471,-51.2176584,Portugal,,298,,,,,,,,330
Porto Alegre,Porto,41.1566892,-8.6239254,Brazil,,226,,,,,3,,,92
Prague,Prague,50.0755381,14.4378005,Czech Republic,,,,,,47,4,47,,354
Pretoria,Pretoria,-25.746111,28.188056,South Africa,,139,,,,,3,,,165
Providence,Providence,41.8239891,-71.4128343, United States,,276,,,,,,,,378
Puebla,Puebla,19.0412967,-98.2061996,Mexico,,,,,,,3,,,181
Pune,Pune,18.5204303,73.8567437, India,,29,,,,,,,81,67
Putian,Putian,25.454085,119.007777, China,,,,,,,,,,390
Pyongyang,Pyongyang,39.0392193,125.7625241,North Korea,,288,,,,,,,77,140
Qingdao,Qingdao,36.067082,120.38264,China,,252,,,,,,,,85
Qiqihar,Qiqihar,47.354348,123.918186, China,,,,,,,,,,368
Qom,Qom,34.6399443,50.8759419, Iran,,,,,,,,,,444
Quanzhou,Quanzhou,24.874132,118.675676, China,,,,,,,,,71,57
Querétaro,Querï¿½taro,20.5887932,-100.3898881, Mexico,,,,,,,,,,394
Quito,Quito,-0.1806532,-78.4678382,Ecuador,,148,,,,,3,,,274
Rabat,Rabat,33.9715904,-6.8498129,Morocco,,97,,,,,,,,237
Raipur,Raipur,21.2513844,81.6296413, India,,,,,,,,,,382
Rajkot,Rajkot,22.3038945,70.8021599,India,,22,,,,,,,,321
Ranchi,Ranchi,23.3440997,85.309562, India,,,,,,,,,,381
Rawalpindi,Rawalpindi,33.598394,73.0441352,Pakistan,,34,,,,,,,,135
Recife,Recife,-8.0475458,-34.8769621, Brazil,39,212,,,,,,,,98
Reyjavik,Reyjavik,64.133333,-21.933333,Iceland,,,,54,,,,,,
Riga,Riga,56.9496487,24.1051864,Latvia,,,,,,57,3,,,
Rio de Janeiro,Rio de Janeiro,-22.9082998,-43.1970773,Brazil,,273,,,,50,2,56,35,26
"Riverside, San Bernardino",Riverside,33.9533487,-117.3961564,USA,,188,,,,,,,,
Riyadh,Riyadh,24.633333,46.716667,Saudi Arabia,,43,,,,,,65,38,69
Rome,Rome,41.8723889,12.4801802,Italy,,,,,,38,3,32,,97
Rosario,Rosario,-32.9507408,-60.6665001,Argentina,,242,,,,,,,,349
Rostov-on-Don,Rostov-on-Don,47.233333,39.7, Russia,,,,,,,,,,418
Rotterdam,Rotterdam,51.930833,4.479167, Netherlands,,,,,,,,,,213
Sacramento,Sacramento,38.5815719,-121.4943996,United States,,195,,,,,3,,,253
Saint Petersburg,Saint Petersburg,59.9342802,30.3350986, Russia,,,,,,,,,43,71
Salt Lake City,Salt Lake City,40.7607793,-111.8910474, United States,,,,,,,,,,428
Salvador,Salvador,13.794185,-88.89653,Brazil,13,162,,,,,,,,90
Samara,Samara,53.202778,50.140833, Russia,,,,,,,,,,386
San Antonio,San Antonio,29.4241219,-98.4936282, United States,,241,,,,,,,,242
San Diego,San Diego,32.715738,-117.1610838,USA,,275,,,,,,,,139
San Francisco,San Francisco,37.7749295,-122.4194155,United States,,297,,,29,,1,22,,56
San Jose,San Jose,37.3393857,-121.8949555,USA,,283,,,,,,,,
San José,San José,9.927045,-84.095967,Costa Rica,,99,,,,,,,,305
San Juan,San Juan,-31.5272732,-68.5214081,Puerto Rico,38,,,,,,,,,207
San Luis Potosí,San Luis Potosï¿½,22.1565651,-100.9854628, Mexico,,,,,,,,,,441
San Pedro Sula,San Pedro Sula,15.5,-88.033333,Honduras,1,,,,,,,,,
San Salvador,San Salvador,13.6929403,-89.2181911,El Salvador,27,173,,,,,,,,280
Sana'a,Sana'a,15.3694451,44.1910066,Yemen,,3,,,,,,,,163
Santa Cruz,Santa Cruz,36.9741171,-122.0307963,Bolivia,,14,,,,,,,,258
Santa Marta,Santa Marta,11.241944,-74.205278,Colombia,32,,,,,,,,,
Santiago,Santiago,-33.4691199,-70.641997,Chile,,235,,,,55,3,58,37,54
Santo Domingo,Santo Domingo,18.466667,-69.95,Dominican Republic,,211,,,,,,,,194
Santos,Santos,-23.9540376,-46.3354875, Brazil,,,,,,,,,,265
São Luís,Sao Luis,-2.5391099,-44.2829046,Brazil,15,,,,,,,,,343
Sao Paolo,Sao Paolo,-23.5505199,-46.6333094,Brazil,,253,,,,45,2,34,19,9
Sapporo,Sapporo,43.0620958,141.3543763, Japan,,,,,,,,,,160
Seattle,Seattle,47.6062095,-122.3320708,USA,,217,,,44,,2,,,134
Semarang,Semarang,-6.966667,110.416667, Indonesia,,,,,,,,,,246
Sendai,Sendai,38.268215,140.8693558, Japan,,,,,,,,,,339
Seoul,Seoul,37.566535,126.9779692,South Korea,,,,,,33,2,12,13,3
Seville,Seville,37.3890924,-5.9844589, Spain,,,,,,,,,,414
Shanghai,Shanghai,31.230416,121.473701,China,,,,,,58,3,18,1,5
Shantou,Shantou,23.354091,116.681972,China,,70,,,,,,,41,182
Shaoxing[13],Shaoxing[13],30.138797,120.8553491, China,,,,,,,,,,217
Shenyang,Shenyang,41.805865,123.432253, China,,,,,,,,,66,60
Shenzhen,Shenzhen,22.543099,114.057868,China,,91,,,,,,73,12,24
Shijiazhuang,Shijiazhuang,38.042307,114.51486,China,,185,,,,,,,,141
Shiraz,Shiraz,29.5917677,52.5836982,Iran,,156,,,,,,,,267
Singapore,Singapore,1.352083,103.819836,Singapore,,240,16,,25,,1,9,40,66
Sofia,Sofia,42.6977082,23.3218675,Bulgaria,,,,87,,60,5,,,379
Srinagar,Srinagar,34.0836581,74.7973681,India,,92,,,,,,,,340
St Louis,St Louis,38.6270025,-90.1994042,United States,45,,,,,,5,,,208
Stockholm,Stockholm,59.3293235,18.0685808,Sweden,,300,4,,19,21,2,33,,324
Stuttgart,Stuttgart,48.7754181,9.1817588,Germany,,,,,27,,2,,,351
Suining,Suining,30.532847,105.592898,China,,215,,,,,,,,
Suqian,Suqian,33.963232,118.275198,China,,229,,,,,,,,
Surabaja,Surabaja,-7.2642396,112.7455788,Indonesia,,118,,,,,,,,76
Surat,Surat,21.1702401,72.8310607,India,,4,,,,,,,53,73
Suwon,Suwon,37.2635727,127.0286009,Republic of Korea,,38,,,,,,,,
"Suzhou, Jiangsu",Suzhou,31.298886,120.585316,China,,199,,,,,,,58,86
Sydney,Sydney,-33.8674869,151.2069902,Australia,,245,11,7,10,2,,14,48,93
Tabriz,Tabriz,38.066667,46.3,Iran,,155,,,,,,,,279
Taejon,Taejon,36.3504119,127.3845475,South Korea,,265,,,,,,,,
Taian,Taian,36.200252,117.087614,China,,292,,,,,,,,
Taichung,Taichung,24.2332076,120.9417368,China,,111,,,,,,,,146
Tainan,Tainan,23.1416985,120.2512728, Taiwan,,,,,,,,,,356
Taipei,Taipei,25.091075,121.5598345,Taiwan,,,,61,,37,2,40,,40
Taiyuan,Taiyuan,37.87059,112.548879,China,,272,,,,,,,,109
Tallinn,Tallinn,59.4369608,24.7535746,Estonia,,,,,,46,4,,,
"Tampa, St. Petersburg",Tampa,27.8498701,-82.4827675,USA,,230,,,,,,,,170
Tangshan,Tangshan,39.630867,118.180194,China,,225,,,,,,,,221
Tashkent,Tashkent,41.266667,69.216667, Uzbekistan,,,,,,,,,,186
Tbilisi,Tbilisi,41.716667,44.783333, Georgia,,,,,,,,,,403
Tegucigalpa,Tegucigalpa,14.0833,-87.2167,Honduras,,90,,,,,,,,401
Tehran,Tehran,35.696111,51.423056,Iran,,222,,131,,,,,27,22
Tel Aviv,Tel Aviv,32.0852999,34.7817676,Israel,,178,,,,40,,54,,117
Thiruvananthapuram,Thiruvananthapuram,8.4875,76.9525, India,,,,,,,,,,256
Thrissur,Thrissur,10.5276416,76.2144349, India,,,,,,,,,,244
Tianjin,Tianjin,39.084158,117.200983, China,,,,,,,,,16,32
Tianmen,Tianmen,30.663337,113.166078,China,,158,,,,,,,,
Tianshui,Tianshui,34.580864,105.724947,China,,209,,,,,,,,
Tijuana,Tijuana,32.5149469,-117.0382471, Mexico,47,69,,,,,,,,248
Tiruchirappalli,Tiruchirappalli,10.7904833,78.7046725, India,,,,,,,,,,427
Tokyo,Tokyo,35.6894875,139.6917064, Japan,,,2,,44,24,2,4,17,1
Toluca,Toluca,19.2826098,-99.6556653,Mexico,,11,,,,,,,,259
Toronto,Toronto,43.653226,-79.3831843,Canada,,200,,4,15,13,3,13,,52
Torreón,Torreon,25.5428443,-103.4067861,Mexico,18,263,,,,,,,,355
Tripoli,Tripoli,32.8084124,13.1509672,Libya,,150,,133,,,,,,387
Tunis,Tunis,36.8064948,10.1815316,Tunisia,,196,,104,,,2,81,,177
Turin,Turin,45.070312,7.6868565, Italy,,,,,,,,,,311
Ufa,Ufa,54.75,55.966667, Russia,,,,,,,,,,448
Ujung Pandang,Ujung Pandang,-5.1308551,119.4165284,Indonesia,,79,,,,,,,,
Ulan Bator,Ulan Bator,47.92,106.92, Mongolia,,,,,,,,,,417
Ulsan,Ulsan,35.5383773,129.3113596, South Korea,,,,,,,,,,419
Ürümqi,Urumqi,43.825592,87.616848, China,,,,,,,,,,149
Vadodara,Vadodara,22.3071588,73.1812187,India,,86,,,,,,,,235
Valencia,Valencia,10.179002,-67.987701,Venezuela,50,46,,,,,,,,236
Valencia,Valencia,39.4699075,-0.3762881, Spain,,,,,,,,,,301
Vancouver,Vancouver,49.261226,-123.1139268,Canada,,216,15,3,5,,1,48,,206
Varanasi,Varanasi,25.3176452,82.9739144, India,,174,,,,,,,,312
Vasai-Virar,Vasai-Virar,19.3896402,72.8160976, India,,,,,,,,,,393
Vienna,Vienna,48.2081743,16.3738189,Austria,,,6,2,1,18,2,16,,261
Vijayawada,Vijayawada,16.5061743,80.6480153,India,,159,,,,,,,,302
Vilnius,Vilnius,54.6871555,25.2796514,Lithuania,,,,,,52,3,,,
Virginia Beach,Virginia Beach,36.8529263,-75.977985, United States,,295,,,,,,,,319
Visakhapatnam,Visakhapatnam,17.6868159,83.2184815,India,,122,,,,,,,,251
Vitória,Vitï¿½ria,-20.297809,-40.299808, Brazil,14,,,,,,,,,275
Wanxian,Wanxian,24.2645792,120.7910177,China,,123,,,,,,,,
Warsaw,Warsaw,52.2296756,21.0122287,Poland,,,,,,54,3,60,,266
Washington DC,Washington DC,38.9071923,-77.0368707,United States,,257,,,43,,2,10,,72
Weifang,Weifang,36.706774,119.161756,China,,233,,,,,,,,326
Wellington,Wellington,-41.2864603,174.776236,New Zealand,,,,,13,,,,,
Wenzhou,Wenzhou,27.994267,120.699367,China,,56,,,,,,,85,151
Wuhan,Wuhan,30.593099,114.305393,China,,58,,,,,3,,32,44
Wuhu,Wuhu,31.352859,118.432941, China,,,,,,,,,,367
Wulumuqi (Urumqi),Wulumuqi (Urumqi),43.47136,87.409417,China,,140,,,,,,,,
Wuxi,Wuxi,31.49117,120.31191,China,,232,,,,,,,,116
Xiamen,Xiamen,24.479834,118.089425, China,,,,,,,,,70,120
Xian,Xian,34.341568,108.940175,China,,267,,,,,,,52,65
Xiangyang,Xiangyang,32.008986,112.122415, China,,,,,,,,,,415
Xiantao,Xiantao,30.360882,113.423482,China,,168,,,,,,,,
Xining,Xining,36.617144,101.778228, China,,,,,,,,,,372
Xinxiang,Xinxiang,35.302928,113.926975, China,,,,,,,,,,436
Xinyi,Xinyi,34.36958,118.354537,China,,249,,,,,,,,
Xuzhou,Xuzhou,34.205768,117.284124,China,,201,,,,,,,,360
Yancheng,Yancheng,33.347383,120.163562,China,,197,,,,,,,,
Yangon,Yangon,16.8,96.15,Myanmar,,95,,,,,,,46,78
Yangzhou,Yangzhou,32.39421,119.412966, China,,,,,,,,,,295
Yantai,Yantai,37.463822,121.447935,China,,202,,,,,,,,334
Yaounde,Yaounde,3.866667,11.516667,Cameroon,,64,,,,,,,,166
Yekaterinburg,Yekaterinburg,56.833333,60.583333, Russia,,,,,,,,,,338
Yerevan,Yerevan,40.183333,44.516667, Armenia,,,,,,,,,,347
Yinchuan,Yinchuan,38.487194,106.230909, China,,,,,,,,,,270
Yiyang,Yiyang,28.55386,112.35518,China,,110,,,,,,,,
Yogyakarta,Yogyakarta,-7.7970684,110.3705267, Indonesia,,,,,,,,,,357
Yokohama,Yokohama,35.4437078,139.6380256,Japan,,,,,49,,2,,67,
Yongzhou,Yongzhou,26.420394,111.613445,China,,191,,,,,,,,
Yueyang,Yueyang,29.357104,113.128958,China,,224,,,,,,,,
"Yulin, Guangxi",Yulin,22.636379,110.164756,China,,176,,,,,,,,
Yuzhou,Yuzhou,34.140701,113.488478,China,,258,,,,,,,,
Zagreb,Zagreb,45.8150108,15.981919,Croatia,,,,,,,5,,,
Zaoyang,Zaoyang,32.128818,112.771959,China,,186,,,,,,,,
Zaozhuang,Zaozhuang,34.810488,117.323725,China,,210,,,,,,,,
Zaria,Zaria,11.066667,7.7, Nigeria,,,,,,,,,,439
Zhangjiagang–Jiangyin[13],Zhangjiagangï¿½Jiangyin[13],31.875428,120.555821, China,,,,,,,,,,187
Zhangjiakou,Zhangjiakou,40.824418,114.887543, China,,,,,,,,,,396
Zhangzhou,Zhangzhou,24.512949,117.647481, China,,,,,,,,,,373
Zhanjiang,Zhanjiang,21.270708,110.359377,China,,82,,,,,,,,
Zhengzhou,Zhengzhou,34.7466,113.625368,China,,172,,,,,,,62,89
Zhongshan[13],Zhongshan[13],22.1482193,113.5607569, China,,,,,,,,,,192
Zhuhai,Zhuhai,22.270715,113.576726, China,,,,,,,,,,350
Zibo,Zibo,36.813487,118.054927,China,,284,,,,,,,,293
Zigong,Zigong,29.33903,104.778442,China,,254, ,,,,,,,
Zurich,Zurich,47.3686498,8.5391825,Switzerland,,,7,,2,1,2,31,,